source_timestamp,destination_timestamp,x,y,z,roll,pitch,yaw,source_radar_timestamp,destination_radar_timestamp
1547562284889605,1547562284639718,0.000370,-0.000657,-0.000000,0.000000,0.000000,-0.000002,1547562284768372,1547562284518879
1547562285139698,1547562284889605,0.000123,0.000117,-0.000000,-0.000000,-0.000000,-0.000010,1547562285018444,1547562284768372
1547562285389370,1547562285139698,0.000379,0.000648,-0.000000,0.000000,-0.000000,-0.000007,1547562285268466,1547562285018444
1547562285639952,1547562285389370,0.000130,-0.000085,-0.000000,-0.000000,-0.000000,0.000005,1547562285517765,1547562285268466
1547562285892576,1547562285639952,0.000337,-0.000077,-0.000000,0.000000,0.000000,-0.000022,1547562285770068,1547562285517765
1547562286144391,1547562285892576,-0.000216,0.000295,-0.000000,0.000000,0.000000,-0.000001,1547562286022805,1547562285770068
1547562286395897,1547562286144391,0.000009,0.000174,-0.000000,0.000000,0.000000,0.000016,1547562286273909,1547562286022805
1547562286647556,1547562286395897,-0.000128,0.000214,-0.000000,0.000000,0.000000,0.000004,1547562286525717,1547562286273909
1547562286898050,1547562286647556,-0.000696,0.000615,-0.000000,-0.000000,0.000000,-0.000032,1547562286777200,1547562286525717
1547562287147988,1547562286898050,-0.000129,-0.001625,-0.000000,0.000000,-0.000000,0.000012,1547562287026819,1547562286777200
1547562287399146,1547562287147988,0.000327,-0.000027,-0.000000,-0.000000,-0.000000,0.000011,1547562287277079,1547562287026819
1547562287651249,1547562287399146,0.000686,0.000327,-0.000000,-0.000000,-0.000000,0.000009,1547562287529256,1547562287277079
1547562287903078,1547562287651249,0.000429,0.000071,-0.000000,-0.000000,-0.000000,-0.000002,1547562287781118,1547562287529256
1547562288154605,1547562287903078,-0.000519,-0.000325,-0.000000,0.000000,-0.000000,-0.000006,1547562288032808,1547562287781118
1547562288405527,1547562288154605,-0.000588,0.000340,-0.000000,-0.000000,-0.000000,0.000008,1547562288284219,1547562288032808
1547562288655906,1547562288405527,-0.000023,0.000025,-0.000000,-0.000000,0.000000,0.000000,1547562288534533,1547562288284219
1547562288906728,1547562288655906,-0.000227,-0.000029,-0.000000,-0.000000,-0.000000,-0.000000,1547562288785302,1547562288534533
1547562289156602,1547562288906728,-0.000296,-0.000052,-0.000000,0.000000,-0.000000,-0.000003,1547562289035822,1547562288785302
1547562289406212,1547562289156602,0.000263,-0.000110,-0.000000,-0.000000,0.000000,-0.000012,1547562289285244,1547562289035822
1547562289655972,1547562289406212,0.000088,-0.000518,-0.000000,-0.000000,0.000000,0.000007,1547562289534768,1547562289285244
1547562289904135,1547562289655972,-0.000160,-0.000332,-0.000000,-0.000000,-0.000000,0.000013,1547562289783886,1547562289534768
1547562290152298,1547562289904135,0.000365,0.000170,-0.000000,-0.000000,-0.000000,-0.000002,1547562290032088,1547562289783886
1547562290400844,1547562290152298,0.000421,0.000173,-0.000000,0.000000,-0.000000,-0.000004,1547562290280355,1547562290032088
1547562290650039,1547562290400844,-0.000020,-0.000474,-0.000000,0.000000,-0.000000,0.000003,1547562290528969,1547562290280355
1547562290900706,1547562290650039,-0.000039,0.000027,-0.000000,-0.000000,0.000000,-0.000003,1547562290779007,1547562290528969
1547562291151481,1547562290900706,0.000035,0.000367,-0.000000,-0.000000,0.000000,-0.000005,1547562291030153,1547562290779007
1547562291401440,1547562291151481,0.000482,0.000979,-0.000000,0.000000,-0.000000,-0.000004,1547562291280526,1547562291030153
1547562291651731,1547562291401440,0.000083,0.001144,-0.000000,0.000000,-0.000000,-0.000004,1547562291530399,1547562291280526
1547562291902246,1547562291651731,-0.000972,0.001076,-0.000000,0.000000,-0.000000,0.000003,1547562291780939,1547562291530399
1547562292152361,1547562291902246,0.000159,0.008842,-0.000000,0.000000,-0.000000,-0.000016,1547562292031484,1547562291780939
1547562292403126,1547562292152361,0.000273,-0.008043,-0.000000,-0.000000,-0.000000,0.000013,1547562292281148,1547562292031484
1547562292655224,1547562292403126,-0.000315,-0.004325,-0.000000,0.000000,0.000000,0.000005,1547562292532892,1547562292281148
1547562292907103,1547562292655224,-0.000123,0.000630,-0.000000,-0.000000,-0.000000,-0.000003,1547562292785542,1547562292532892
1547562293158113,1547562292907103,0.000112,0.000181,-0.000000,-0.000000,0.000000,0.000003,1547562293036478,1547562292785542
1547562293409276,1547562293158113,-0.000141,0.002779,-0.000000,0.000000,-0.000000,0.000002,1547562293287595,1547562293036478
1547562293660082,1547562293409276,0.000102,-0.001540,-0.000000,0.000000,-0.000000,0.000025,1547562293538934,1547562293287595
1547562293910297,1547562293660082,0.000023,-0.001623,-0.000000,-0.000000,-0.000000,-0.000022,1547562293788979,1547562293538934
1547562294160399,1547562293910297,0.000328,-0.000454,-0.000000,0.000000,-0.000000,0.000019,1547562294039147,1547562293788979
1547562294410213,1547562294160399,0.000355,0.000689,-0.000000,0.000000,0.000000,-0.000013,1547562294289478,1547562294039147
1547562294659408,1547562294410213,0.000037,0.002334,-0.000000,0.000000,0.000000,-0.000029,1547562294538653,1547562294289478
1547562294908587,1547562294659408,0.000128,-0.001575,-0.000000,-0.000000,0.000000,0.000010,1547562294787876,1547562294538653
1547562295156868,1547562294908587,-0.000217,-0.000775,-0.000000,0.000000,-0.000000,0.000013,1547562295036865,1547562294787876
1547562295405443,1547562295156868,-0.000403,0.000148,-0.000000,0.000000,0.000000,-0.000009,1547562295284629,1547562295036865
1547562295655952,1547562295405443,0.000031,-0.000607,-0.000000,0.000000,0.000000,-0.000018,1547562295534234,1547562295284629
1547562295906495,1547562295655952,0.000115,0.000156,-0.000000,-0.000000,0.000000,-0.000044,1547562295785509,1547562295534234
1547562296156391,1547562295906495,0.000672,0.002125,-0.000000,-0.000000,-0.000000,-0.000019,1547562296035111,1547562295785509
1547562296407002,1547562296156391,0.000949,0.000495,-0.000000,0.000000,-0.000000,0.000030,1547562296285427,1547562296035111
1547562296657206,1547562296407002,0.004345,-0.001812,-0.000000,0.000000,0.000000,0.000395,1547562296536187,1547562296285427
1547562296907030,1547562296657206,0.019265,-0.000717,-0.000000,-0.000000,-0.000000,0.000865,1547562296786128,1547562296536187
1547562297157501,1547562296907030,0.041809,-0.001529,-0.000000,0.000000,0.000000,0.001776,1547562297035911,1547562296786128
1547562297409289,1547562297157501,0.044611,0.004906,-0.000000,0.000000,-0.000000,0.003417,1547562297287221,1547562297035911
1547562297660577,1547562297409289,0.095242,0.012779,-0.000000,0.000000,-0.000000,0.006079,1547562297539073,1547562297287221
1547562297911725,1547562297660577,0.090812,0.002226,-0.000000,0.000000,-0.000000,0.010738,1547562297789960,1547562297539073
1547562298162878,1547562297911725,0.172164,0.009786,-0.000000,-0.000000,-0.000000,0.015703,1547562298041464,1547562297789960
1547562298413663,1547562298162878,0.249893,0.021440,-0.000000,-0.000000,0.000000,0.020853,1547562298292078,1547562298041464
1547562298664677,1547562298413663,0.302211,0.027108,-0.000000,-0.000000,-0.000000,0.025152,1547562298542940,1547562298292078
1547562298915228,1547562298664677,0.338784,0.028734,-0.000000,0.000000,-0.000000,0.028365,1547562298794263,1547562298542940
1547562299164884,1547562298915228,0.373819,0.031799,-0.000000,0.000000,-0.000000,0.030684,1547562299043893,1547562298794263
1547562299414825,1547562299164884,0.402353,0.032676,-0.000000,-0.000000,-0.000000,0.032659,1547562299293667,1547562299043893
1547562299664632,1547562299414825,0.435144,0.029004,-0.000000,-0.000000,-0.000000,0.032418,1547562299543998,1547562299293667
1547562299912432,1547562299664632,0.461173,0.024129,-0.000000,-0.000000,0.000000,0.031180,1547562299792975,1547562299543998
1547562300160987,1547562299912432,0.493118,0.041292,-0.000000,-0.000000,-0.000000,0.026085,1547562300039813,1547562299792975
1547562300410157,1547562300160987,0.536313,0.015767,-0.000000,-0.000000,-0.000000,0.013699,1547562300290086,1547562300039813
1547562300658222,1547562300410157,0.594914,0.000515,-0.000000,-0.000000,-0.000000,0.009906,1547562300537910,1547562300290086
1547562300907498,1547562300658222,0.650594,-0.002436,-0.000000,0.000000,-0.000000,-0.000326,1547562300786295,1547562300537910
1547562301158059,1547562300907498,0.706526,-0.007680,-0.000000,0.000000,-0.000000,-0.009631,1547562301036734,1547562300786295
1547562301407576,1547562301158059,0.761050,-0.025587,-0.000000,-0.000000,-0.000000,-0.015493,1547562301287050,1547562301036734
1547562301657139,1547562301407576,0.841380,-0.028482,0.000000,-0.000000,-0.000000,-0.021982,1547562301535952,1547562301287050
1547562301907070,1547562301657139,0.930464,-0.035587,-0.000000,0.000000,0.000000,-0.027348,1547562301786113,1547562301535952
1547562302156619,1547562301907070,1.003537,-0.044357,-0.000000,-0.000000,-0.000000,-0.030428,1547562302035914,1547562301786113
1547562302406682,1547562302156619,1.091118,-0.046981,-0.000000,0.000000,-0.000000,-0.032948,1547562302285141,1547562302035914
1547562302656579,1547562302406682,1.189497,-0.047204,-0.000000,-0.000000,-0.000000,-0.024906,1547562302535954,1547562302285141
1547562302905256,1547562302656579,1.213122,-0.018788,-0.000000,0.000000,-0.000000,-0.018695,1547562302784722,1547562302535954
1547562303155196,1547562302905256,1.175073,-0.009443,-0.000000,0.000000,0.000000,-0.017624,1547562303033701,1547562302784722
1547562303405762,1547562303155196,1.479133,-0.062624,-0.000000,-0.000000,-0.000000,-0.015998,1547562303284566,1547562303033701
1547562303656782,1547562303405762,1.480868,-0.034296,0.000000,0.000000,0.000000,-0.016755,1547562303534696,1547562303284566
1547562303908701,1547562303656782,1.495352,-0.028140,-0.000000,0.000000,-0.000000,-0.014411,1547562303786643,1547562303534696
1547562304159623,1547562303908701,1.537957,-0.023600,-0.000000,0.000000,-0.000000,-0.008610,1547562304038549,1547562303786643
1547562304409738,1547562304159623,1.578166,-0.007369,-0.000000,-0.000000,-0.000000,-0.003741,1547562304288208,1547562304038549
1547562304660243,1547562304409738,1.526114,-0.005612,-0.000000,-0.000000,-0.000000,0.001061,1547562304538870,1547562304288208
1547562304910499,1547562304660243,1.587835,-0.006198,-0.000000,-0.000000,0.000000,-0.001121,1547562304789378,1547562304538870
1547562305159862,1547562304910499,1.671023,-0.015453,-0.000000,-0.000000,0.000000,-0.002366,1547562305039171,1547562304789378
1547562305409794,1547562305159862,1.742972,-0.019349,-0.000000,0.000000,-0.000000,-0.002334,1547562305288129,1547562305039171
1547562305658199,1547562305409794,1.747710,-0.017135,0.000000,-0.000000,-0.000000,-0.002625,1547562305537656,1547562305288129
1547562305906912,1547562305658199,1.726658,-0.007139,0.000000,-0.000000,0.000000,-0.003199,1547562305786436,1547562305537656
1547562306155664,1547562305906912,1.754200,-0.008769,-0.000000,-0.000000,-0.000000,-0.000167,1547562306034971,1547562305786436
1547562306404103,1547562306155664,1.764261,-0.008826,-0.000000,-0.000000,-0.000000,-0.001198,1547562306284342,1547562306034971
1547562306652346,1547562306404103,1.787906,-0.005639,-0.000000,-0.000000,-0.000000,-0.000799,1547562306531785,1547562306284342
1547562306902260,1547562306652346,1.805778,-0.003536,-0.000000,0.000000,-0.000000,-0.000035,1547562306780867,1547562306531785
1547562307152504,1547562306902260,1.940784,-0.007174,0.000000,-0.000000,0.000000,-0.001777,1547562307031688,1547562306780867
1547562307401748,1547562307152504,1.930358,-0.014235,-0.000000,-0.000000,-0.000000,0.000703,1547562307281148,1547562307031688
1547562307651355,1547562307401748,1.972178,-0.009763,-0.000000,0.000000,0.000000,-0.000674,1547562307530212,1547562307281148
1547562307900772,1547562307651355,1.946316,-0.004981,-0.000000,-0.000000,-0.000000,-0.003339,1547562307780160,1547562307530212
1547562308150069,1547562307900772,1.847769,-0.007888,-0.000000,0.000000,-0.000000,-0.001288,1547562308029231,1547562307780160
1547562308399449,1547562308150069,1.931716,-0.005155,-0.000000,0.000000,-0.000000,-0.002715,1547562308278508,1547562308029231
1547562308648900,1547562308399449,1.939492,-0.009646,0.000000,-0.000000,-0.000000,-0.003209,1547562308528227,1547562308278508
1547562308898398,1547562308648900,1.946755,-0.008961,-0.000000,-0.000000,-0.000000,-0.000629,1547562308777275,1547562308528227
1547562309148575,1547562308898398,1.976915,-0.001138,-0.000000,0.000000,0.000000,0.002712,1547562309027284,1547562308777275
1547562309399943,1547562309148575,2.000144,0.002612,-0.000000,0.000000,-0.000000,0.000801,1547562309277847,1547562309027284
1547562309651841,1547562309399943,1.997218,-0.003215,-0.000000,-0.000000,-0.000000,-0.002300,1547562309529969,1547562309277847
1547562309902760,1547562309651841,2.023418,-0.002527,-0.000000,-0.000000,-0.000000,-0.000599,1547562309781656,1547562309529969
1547562310153035,1547562309902760,2.006774,-0.002266,-0.000000,-0.000000,-0.000000,0.000595,1547562310031521,1547562309781656
1547562310403279,1547562310153035,2.003270,-0.006191,-0.000000,0.000000,-0.000000,0.000034,1547562310282281,1547562310031521
1547562310653238,1547562310403279,2.018862,-0.001542,0.000000,0.000000,-0.000000,0.001753,1547562310532016,1547562310282281
1547562310902962,1547562310653238,2.194921,-0.010630,-0.000000,0.000000,0.000000,0.002966,1547562310782223,1547562310532016
1547562311152471,1547562310902962,2.201084,-0.001809,-0.000000,-0.000000,-0.000000,0.002412,1547562311031630,1547562310782223
1547562311401450,1547562311152471,2.151209,-0.012999,-0.000000,0.000000,-0.000000,0.002457,1547562311281166,1547562311031630
1547562311650244,1547562311401450,2.082401,-0.003332,-0.000000,0.000000,-0.000000,0.002902,1547562311529469,1547562311281166
1547562311899493,1547562311650244,2.109666,0.001646,-0.000000,-0.000000,0.000000,0.000846,1547562311778696,1547562311529469
1547562312148659,1547562311899493,2.217546,-0.009697,-0.000000,-0.000000,0.000000,0.000028,1547562312028083,1547562311778696
1547562312397188,1547562312148659,2.217945,-0.016525,-0.000000,-0.000000,-0.000000,0.000168,1547562312276927,1547562312028083
1547562312645577,1547562312397188,2.173693,-0.010514,-0.000000,-0.000000,0.000000,0.002222,1547562312525218,1547562312276927
1547562312894105,1547562312645577,2.156219,-0.007896,-0.000000,0.000000,-0.000000,0.001461,1547562312773733,1547562312525218
1547562313142569,1547562312894105,2.202048,-0.002650,-0.000000,0.000000,-0.000000,0.001885,1547562313022117,1547562312773733
1547562313391754,1547562313142569,2.206420,-0.008263,0.000000,-0.000000,0.000000,-0.000187,1547562313270529,1547562313022117
1547562313642043,1547562313391754,2.192793,-0.007528,-0.000000,-0.000000,-0.000000,0.001615,1547562313520809,1547562313270529
1547562313891604,1547562313642043,2.245516,-0.007203,-0.000000,-0.000000,-0.000000,0.000418,1547562313770946,1547562313520809
1547562314141473,1547562313891604,2.304305,-0.000659,-0.000000,0.000000,-0.000000,-0.000072,1547562314020232,1547562313770946
1547562314391307,1547562314141473,2.300899,-0.000822,-0.000000,-0.000000,-0.000000,0.000959,1547562314270582,1547562314020232
1547562314640517,1547562314391307,2.375244,0.006365,-0.000000,0.000000,-0.000000,-0.000638,1547562314519665,1547562314270582
1547562314890311,1547562314640517,2.332550,0.001226,-0.000000,0.000000,0.000000,-0.000918,1547562314769195,1547562314519665
1547562315139957,1547562314890311,2.320378,-0.001775,-0.000000,-0.000000,-0.000000,-0.000947,1547562315019190,1547562314769195
1547562315389678,1547562315139957,2.313187,-0.006009,-0.000000,0.000000,-0.000000,-0.000440,1547562315268407,1547562315019190
1547562315641254,1547562315389678,2.412979,-0.008066,-0.000000,0.000000,-0.000000,0.000716,1547562315518871,1547562315268407
1547562315893090,1547562315641254,2.399909,-0.004850,-0.000000,0.000000,0.000000,0.001831,1547562315771527,1547562315518871
1547562316143682,1547562315893090,2.319289,0.014296,-0.000000,0.000000,0.000000,0.001467,1547562316022309,1547562315771527
1547562316394627,1547562316143682,2.185976,0.000918,-0.000000,0.000000,0.000000,-0.000614,1547562316272865,1547562316022309
1547562316645270,1547562316394627,2.131471,-0.005825,-0.000000,0.000000,0.000000,-0.001046,1547562316524154,1547562316272865
1547562316895113,1547562316645270,2.387656,0.004816,-0.000000,-0.000000,0.000000,0.000534,1547562316774013,1547562316524154
1547562317145058,1547562316895113,2.343113,0.005419,-0.000000,-0.000000,-0.000000,0.002371,1547562317023983,1547562316774013
1547562317394732,1547562317145058,2.361485,0.001138,-0.000000,-0.000000,0.000000,0.002889,1547562317273851,1547562317023983
1547562317644183,1547562317394732,2.367670,0.008660,-0.000000,-0.000000,-0.000000,0.003950,1547562317523312,1547562317273851
1547562317893339,1547562317644183,2.289137,0.023866,-0.000000,-0.000000,-0.000000,0.002897,1547562317772777,1547562317523312
1547562318141973,1547562317893339,2.175039,0.015236,-0.000000,-0.000000,0.000000,0.000653,1547562318021477,1547562317772777
1547562318390786,1547562318141973,2.553522,-0.044491,-0.000000,-0.000000,-0.000000,0.002895,1547562318270191,1547562318021477
1547562318639563,1547562318390786,2.407181,-0.012951,-0.000000,-0.000000,-0.000000,0.003321,1547562318519084,1547562318270191
1547562318887927,1547562318639563,2.347596,-0.011275,-0.000000,-0.000000,0.000000,0.003064,1547562318767702,1547562318519084
1547562319136123,1547562318887927,2.295369,-0.001574,-0.000000,-0.000000,0.000000,0.002528,1547562319015843,1547562318767702
1547562319384739,1547562319136123,2.118220,0.001080,-0.000000,-0.000000,0.000000,0.002990,1547562319264063,1547562319015843
1547562319634738,1547562319384739,2.361019,0.003413,-0.000000,0.000000,-0.000000,0.002743,1547562319513317,1547562319264063
1547562319884809,1547562319634738,2.346869,-0.000043,-0.000000,-0.000000,-0.000000,0.002582,1547562319764097,1547562319513317
1547562320134352,1547562319884809,2.380092,-0.005808,-0.000000,-0.000000,0.000000,0.002370,1547562320013437,1547562319764097
1547562320383980,1547562320134352,2.395963,-0.006174,-0.000000,0.000000,0.000000,0.000403,1547562320263078,1547562320013437
1547562320633867,1547562320383980,2.378280,-0.024242,-0.000000,0.000000,-0.000000,-0.001594,1547562320512724,1547562320263078
1547562320883805,1547562320633867,2.387354,-0.021074,-0.000000,0.000000,0.000000,-0.002459,1547562320762697,1547562320512724
1547562321133454,1547562320883805,2.315810,-0.021387,-0.000000,0.000000,-0.000000,-0.002176,1547562321012615,1547562320762697
1547562321383214,1547562321133454,2.305283,-0.010031,-0.000000,0.000000,-0.000000,-0.002499,1547562321262220,1547562321012615
1547562321632358,1547562321383214,2.334941,-0.015151,-0.000000,-0.000000,-0.000000,-0.001584,1547562321511721,1547562321262220
1547562321882353,1547562321632358,2.363771,-0.022226,-0.000000,-0.000000,0.000000,-0.000724,1547562321760935,1547562321511721
1547562322133645,1547562321882353,2.322515,-0.012752,0.000000,-0.000000,-0.000000,-0.000063,1547562322011515,1547562321760935
1547562322385252,1547562322133645,2.308237,-0.007825,-0.000000,-0.000000,-0.000000,-0.000007,1547562322263712,1547562322011515
1547562322635923,1547562322385252,2.273257,-0.001618,-0.000000,0.000000,-0.000000,-0.000580,1547562322514444,1547562322263712
1547562322886856,1547562322635923,2.277403,0.004400,-0.000000,-0.000000,-0.000000,0.000040,1547562322765265,1547562322514444
1547562323137253,1547562322886856,2.311706,-0.003945,-0.000000,0.000000,0.000000,0.001044,1547562323016254,1547562322765265
1547562323387032,1547562323137253,2.248759,-0.005324,-0.000000,0.000000,-0.000000,0.002030,1547562323265956,1547562323016254
1547562323637345,1547562323387032,2.248953,-0.000752,0.000000,-0.000000,-0.000000,0.004114,1547562323516153,1547562323265956
1547562323886743,1547562323637345,2.230781,0.014662,-0.000000,0.000000,0.000000,0.006334,1547562323766167,1547562323516153
1547562324135668,1547562323886743,2.233519,0.007466,-0.000000,-0.000000,-0.000000,0.006311,1547562324014987,1547562323766167
1547562324384472,1547562324135668,2.220979,0.007905,-0.000000,0.000000,-0.000000,0.007334,1547562324264145,1547562324014987
1547562324633295,1547562324384472,2.198992,0.019110,-0.000000,0.000000,-0.000000,0.012486,1547562324512703,1547562324264145
1547562324881891,1547562324633295,2.164123,0.019796,-0.000000,-0.000000,-0.000000,0.013166,1547562324761460,1547562324512703
1547562325130437,1547562324881891,2.176152,0.015954,0.000000,0.000000,-0.000000,0.011864,1547562325010097,1547562324761460
1547562325378818,1547562325130437,2.120325,0.010524,-0.000000,-0.000000,-0.000000,0.009786,1547562325258385,1547562325010097
1547562325627820,1547562325378818,1.863085,0.010423,-0.000000,0.000000,-0.000000,0.006432,1547562325507057,1547562325258385
1547562325877634,1547562325627820,2.163708,0.008439,-0.000000,-0.000000,-0.000000,0.004421,1547562325756274,1547562325507057
1547562326127795,1547562325877634,2.198160,0.001040,-0.000000,-0.000000,-0.000000,0.002597,1547562326006842,1547562325756274
1547562326377232,1547562326127795,2.195161,-0.005991,-0.000000,-0.000000,-0.000000,0.000179,1547562326256517,1547562326006842
1547562326627091,1547562326377232,2.188684,0.001898,-0.000000,-0.000000,-0.000000,-0.001014,1547562326506000,1547562326256517
1547562326876876,1547562326627091,2.211978,-0.006266,-0.000000,-0.000000,-0.000000,-0.002827,1547562326755996,1547562326506000
1547562327126318,1547562326876876,2.177527,-0.007435,-0.000000,0.000000,-0.000000,-0.001531,1547562327005549,1547562326755996
1547562327375976,1547562327126318,2.175030,-0.004776,0.000000,0.000000,-0.000000,-0.001747,1547562327254977,1547562327005549
1547562327625684,1547562327375976,2.180948,-0.011695,-0.000000,0.000000,-0.000000,-0.001135,1547562327504737,1547562327254977
1547562327875718,1547562327625684,2.187893,-0.005351,-0.000000,-0.000000,0.000000,0.000730,1547562327754441,1547562327504737
1547562328127056,1547562327875718,2.207932,-0.007056,-0.000000,-0.000000,-0.000000,0.003259,1547562328004913,1547562327754441
1547562328378412,1547562328127056,2.198670,0.003675,-0.000000,-0.000000,-0.000000,0.003365,1547562328256661,1547562328004913
1547562328629320,1547562328378412,2.191933,0.002673,-0.000000,-0.000000,-0.000000,0.004764,1547562328507960,1547562328256661
1547562328880021,1547562328629320,2.214671,-0.001509,-0.000000,-0.000000,-0.000000,0.001790,1547562328758626,1547562328507960
1547562329130575,1547562328880021,2.234545,-0.003894,-0.000000,0.000000,-0.000000,0.002519,1547562329009091,1547562328758626
1547562329381004,1547562329130575,2.217842,-0.001574,-0.000000,0.000000,-0.000000,0.002227,1547562329259725,1547562329009091
1547562329631050,1547562329381004,2.164309,-0.001426,-0.000000,0.000000,-0.000000,0.002473,1547562329510009,1547562329259725
1547562329880539,1547562329631050,2.146268,-0.001996,-0.000000,0.000000,-0.000000,0.002943,1547562329759722,1547562329510009
1547562330129860,1547562329880539,2.189206,0.002257,-0.000000,0.000000,0.000000,0.002254,1547562330009069,1547562329759722
1547562330378807,1547562330129860,2.199509,-0.000979,-0.000000,0.000000,-0.000000,0.000230,1547562330258303,1547562330009069
1547562330627163,1547562330378807,2.202334,-0.008648,-0.000000,-0.000000,-0.000000,-0.000907,1547562330506824,1547562330258303
1547562330875734,1547562330627163,2.194156,-0.017648,-0.000000,0.000000,0.000000,-0.004730,1547562330755314,1547562330506824
1547562331124305,1547562330875734,2.201445,-0.013143,0.000000,0.000000,-0.000000,-0.004883,1547562331003958,1547562330755314
1547562331372966,1547562331124305,2.103279,-0.014640,-0.000000,0.000000,-0.000000,-0.004019,1547562331252442,1547562331003958
1547562331622495,1547562331372966,2.004696,-0.012851,-0.000000,0.000000,0.000000,-0.003468,1547562331501418,1547562331252442
1547562331872625,1547562331622495,2.238586,-0.007744,-0.000000,0.000000,0.000000,0.000105,1547562331751598,1547562331501418
1547562332122464,1547562331872625,2.192526,-0.001733,-0.000000,0.000000,0.000000,0.001589,1547562332001672,1547562331751598
1547562332372277,1547562332122464,2.193045,-0.004582,-0.000000,-0.000000,0.000000,0.001793,1547562332251328,1547562332001672
1547562332621781,1547562332372277,2.099659,-0.010549,-0.000000,0.000000,0.000000,0.001484,1547562332501011,1547562332251328
1547562332871192,1547562332621781,2.057642,-0.007212,-0.000000,-0.000000,-0.000000,-0.000507,1547562332750296,1547562332501011
1547562333120871,1547562332871192,2.269864,-0.010663,-0.000000,0.000000,-0.000000,-0.000317,1547562332999914,1547562332750296
1547562333370897,1547562333120871,2.252564,-0.014946,-0.000000,-0.000000,-0.000000,0.000259,1547562333249676,1547562332999914
1547562333620507,1547562333370897,2.246701,-0.007110,-0.000000,0.000000,0.000000,-0.001208,1547562333499607,1547562333249676
1547562333870248,1547562333620507,2.176716,-0.012703,-0.000000,0.000000,0.000000,-0.000985,1547562333749357,1547562333499607
1547562334120050,1547562333870248,2.113939,-0.012528,-0.000000,-0.000000,-0.000000,-0.000368,1547562333999007,1547562333749357
1547562334370134,1547562334120050,2.068935,-0.011319,-0.000000,-0.000000,0.000000,-0.001034,1547562334248713,1547562333999007
1547562334621468,1547562334370134,2.318088,-0.008457,-0.000000,0.000000,-0.000000,-0.001115,1547562334499352,1547562334248713
1547562334872958,1547562334621468,2.303047,-0.005676,-0.000000,0.000000,-0.000000,-0.001362,1547562334751537,1547562334499352
1547562335123859,1547562334872958,2.335860,-0.006724,-0.000000,-0.000000,0.000000,-0.001189,1547562335002423,1547562334751537
1547562335374278,1547562335123859,2.308036,-0.008772,-0.000000,-0.000000,0.000000,-0.002492,1547562335252931,1547562335002423
1547562335624294,1547562335374278,2.282175,-0.010641,-0.000000,0.000000,-0.000000,-0.001998,1547562335503343,1547562335252931
1547562335874184,1547562335624294,2.384469,-0.021781,-0.000000,-0.000000,0.000000,-0.007354,1547562335753173,1547562335503343
1547562336123728,1547562335874184,2.370638,-0.018806,-0.000000,-0.000000,-0.000000,-0.005457,1547562336002995,1547562335753173
1547562336372697,1547562336123728,2.366962,-0.017303,-0.000000,0.000000,-0.000000,-0.006536,1547562336252354,1547562336002995
1547562336622032,1547562336372697,2.335455,-0.009116,0.000000,-0.000000,0.000000,-0.004135,1547562336500861,1547562336252354
1547562336871072,1547562336622032,2.338225,-0.019136,-0.000000,0.000000,0.000000,-0.002866,1547562336750934,1547562336500861
1547562337119663,1547562336871072,2.220150,-0.011249,-0.000000,-0.000000,-0.000000,-0.002630,1547562336998979,1547562336750934
1547562337368400,1547562337119663,2.298409,-0.010344,-0.000000,-0.000000,0.000000,-0.002677,1547562337248204,1547562336998979
1547562337616488,1547562337368400,2.339061,-0.007260,-0.000000,0.000000,-0.000000,-0.002908,1547562337496231,1547562337248204
1547562337865364,1547562337616488,2.327359,-0.015081,-0.000000,0.000000,-0.000000,-0.005073,1547562337744514,1547562337496231
1547562338115590,1547562337865364,2.267707,-0.019704,-0.000000,0.000000,0.000000,-0.007460,1547562337993784,1547562337744514
1547562338366277,1547562338115590,2.241940,-0.024526,-0.000000,-0.000000,-0.000000,-0.008728,1547562338245349,1547562337993784
1547562338615857,1547562338366277,2.324282,-0.024992,-0.000000,0.000000,0.000000,-0.007545,1547562338495187,1547562338245349
1547562338865486,1547562338615857,2.380588,-0.023162,-0.000000,-0.000000,-0.000000,-0.006635,1547562338744393,1547562338495187
1547562339115208,1547562338865486,2.368927,-0.016384,-0.000000,-0.000000,0.000000,-0.004898,1547562338994243,1547562338744393
1547562339364618,1547562339115208,2.389243,-0.016287,-0.000000,-0.000000,-0.000000,-0.007166,1547562339244048,1547562338994243
1547562339614781,1547562339364618,2.391077,-0.018453,-0.000000,-0.000000,-0.000000,-0.007291,1547562339492896,1547562339244048
1547562339863540,1547562339614781,2.247596,-0.022776,-0.000000,-0.000000,-0.000000,-0.006912,1547562339743032,1547562339492896
1547562340113681,1547562339863540,2.335974,-0.018734,-0.000000,0.000000,-0.000000,-0.007060,1547562339991971,1547562339743032
1547562340365443,1547562340113681,2.425140,-0.017340,-0.000000,0.000000,0.000000,-0.006966,1547562340243337,1547562339991971
1547562340617832,1547562340365443,2.421100,-0.019725,-0.000000,-0.000000,-0.000000,-0.007084,1547562340495481,1547562340243337
1547562340867785,1547562340617832,2.288424,-0.016207,-0.000000,0.000000,-0.000000,-0.006612,1547562340746452,1547562340495481
1547562341118508,1547562340867785,2.316565,-0.016943,-0.000000,0.000000,0.000000,-0.006498,1547562340996897,1547562340746452
1547562341368768,1547562341118508,2.293752,-0.015345,-0.000000,0.000000,-0.000000,-0.006271,1547562341247836,1547562340996897
1547562341618529,1547562341368768,2.197408,-0.012107,-0.000000,0.000000,-0.000000,-0.005000,1547562341497316,1547562341247836
1547562341868371,1547562341618529,2.197020,-0.014614,-0.000000,-0.000000,-0.000000,-0.003584,1547562341747648,1547562341497316
1547562342117232,1547562341868371,2.241057,-0.012290,-0.000000,-0.000000,-0.000000,-0.003621,1547562341996801,1547562341747648
1547562342365963,1547562342117232,2.271128,-0.011111,-0.000000,0.000000,-0.000000,-0.002536,1547562342245344,1547562341996801
1547562342615243,1547562342365963,2.246568,-0.004790,-0.000000,0.000000,0.000000,-0.000775,1547562342494362,1547562342245344
1547562342864118,1547562342615243,2.230576,-0.005534,-0.000000,-0.000000,-0.000000,0.000155,1547562342743797,1547562342494362
1547562343112743,1547562342864118,2.275259,-0.003688,-0.000000,-0.000000,-0.000000,0.001535,1547562342992360,1547562342743797
1547562343361331,1547562343112743,2.285057,0.001276,-0.000000,0.000000,-0.000000,0.000186,1547562343240985,1547562342992360
1547562343610134,1547562343361331,2.284012,0.002962,-0.000000,0.000000,0.000000,0.000811,1547562343489485,1547562343240985
1547562343860340,1547562343610134,2.300633,-0.004693,-0.000000,-0.000000,-0.000000,0.002100,1547562343738655,1547562343489485
1547562344110509,1547562343860340,2.291384,-0.005779,-0.000000,-0.000000,0.000000,0.003346,1547562343989752,1547562343738655
1547562344360137,1547562344110509,2.242377,-0.011935,-0.000000,-0.000000,-0.000000,0.003763,1547562344239275,1547562343989752
1547562344609863,1547562344360137,2.309617,-0.004202,-0.000000,0.000000,0.000000,0.003458,1547562344488835,1547562344239275
1547562344859290,1547562344609863,2.284018,-0.010512,-0.000000,0.000000,-0.000000,0.003555,1547562344738481,1547562344488835
1547562345108960,1547562344859290,2.275573,-0.013121,-0.000000,-0.000000,0.000000,0.004294,1547562344987916,1547562344738481
1547562345358582,1547562345108960,2.217596,-0.010086,-0.000000,0.000000,-0.000000,0.004484,1547562345237825,1547562344987916
1547562345608087,1547562345358582,2.229932,-0.010587,-0.000000,-0.000000,-0.000000,0.004486,1547562345487148,1547562345237825
1547562345857622,1547562345608087,2.243524,-0.014062,-0.000000,-0.000000,-0.000000,0.004995,1547562345736778,1547562345487148
1547562346107648,1547562345857622,2.359217,-0.013200,-0.000000,0.000000,0.000000,0.005526,1547562345986327,1547562345736778
1547562346358902,1547562346107648,2.404262,-0.010258,-0.000000,0.000000,-0.000000,0.005273,1547562346236943,1547562345986327
1547562346610296,1547562346358902,2.298333,-0.009133,-0.000000,0.000000,-0.000000,0.005686,1547562346488725,1547562346236943
1547562346861633,1547562346610296,2.279586,-0.008484,0.000000,-0.000000,-0.000000,0.006523,1547562346739622,1547562346488725
1547562347112853,1547562346861633,2.279885,0.002392,-0.000000,0.000000,-0.000000,0.005682,1547562346991495,1547562346739622
1547562347362895,1547562347112853,2.142577,-0.008749,-0.000000,-0.000000,0.000000,0.006087,1547562347241735,1547562346991495
1547562347612918,1547562347362895,2.148352,-0.017887,-0.000000,0.000000,-0.000000,0.006143,1547562347491852,1547562347241735
1547562347862726,1547562347612918,2.231511,-0.008052,-0.000000,-0.000000,0.000000,0.004216,1547562347741897,1547562347491852
1547562348111839,1547562347862726,2.218803,-0.011924,-0.000000,0.000000,0.000000,0.002870,1547562347991342,1547562347741897
1547562348361408,1547562348111839,2.036981,-0.007559,-0.000000,-0.000000,-0.000000,0.001037,1547562348240218,1547562347991342
1547562348610726,1547562348361408,1.996904,-0.015084,-0.000000,-0.000000,-0.000000,0.000386,1547562348490405,1547562348240218
1547562348859311,1547562348610726,2.044999,-0.019522,-0.000000,0.000000,-0.000000,0.001530,1547562348738674,1547562348490405
1547562349108187,1547562348859311,2.103925,-0.020655,-0.000000,0.000000,-0.000000,0.000800,1547562348987645,1547562348738674
1547562349356817,1547562349108187,2.055217,-0.020020,-0.000000,-0.000000,-0.000000,-0.000895,1547562349236624,1547562348987645
1547562349605256,1547562349356817,2.012556,-0.019234,-0.000000,0.000000,-0.000000,-0.002958,1547562349484935,1547562349236624
1547562349854141,1547562349605256,1.944099,-0.026066,-0.000000,-0.000000,0.000000,-0.005473,1547562349733354,1547562349484935
1547562350104473,1547562349854141,1.922755,-0.026354,-0.000000,-0.000000,0.000000,-0.009744,1547562349982730,1547562349733354
1547562350354869,1547562350104473,1.855140,-0.032784,-0.000000,-0.000000,-0.000000,-0.012136,1547562350233946,1547562349982730
1547562350604674,1547562350354869,1.806367,-0.031030,-0.000000,-0.000000,-0.000000,-0.011733,1547562350483772,1547562350233946
1547562350854737,1547562350604674,1.801403,-0.027007,-0.000000,-0.000000,0.000000,-0.011158,1547562350733696,1547562350483772
1547562351104595,1547562350854737,1.739924,-0.027943,-0.000000,-0.000000,0.000000,-0.011401,1547562350983655,1547562350733696
1547562351354372,1547562351104595,1.687944,-0.033709,-0.000000,0.000000,-0.000000,-0.014944,1547562351233287,1547562350983655
1547562351604158,1547562351354372,1.614547,-0.048069,-0.000000,0.000000,0.000000,-0.025678,1547562351483263,1547562351233287
1547562351854062,1547562351604158,1.544866,-0.073290,-0.000000,0.000000,0.000000,-0.039651,1547562351733028,1547562351483263
1547562352105004,1547562351854062,1.488023,-0.085524,-0.000000,0.000000,-0.000000,-0.052923,1547562351983077,1547562351733028
1547562352357272,1547562352105004,1.397265,-0.110932,-0.000000,-0.000000,-0.000000,-0.075642,1547562352234904,1547562351983077
1547562352609854,1547562352357272,1.311343,-0.134762,-0.000000,-0.000000,-0.000000,-0.093602,1547562352487593,1547562352234904
1547562352861366,1547562352609854,1.223506,-0.150427,-0.000000,-0.000000,0.000000,-0.102587,1547562352739953,1547562352487593
1547562353112331,1547562352861366,1.123299,-0.137521,-0.000000,-0.000000,-0.000000,-0.108453,1547562352990705,1547562352739953
1547562353362452,1547562353112331,1.111582,-0.158599,-0.000000,0.000000,0.000000,-0.112870,1547562353241664,1547562352990705
1547562353611457,1547562353362452,1.059031,-0.155101,-0.000000,0.000000,0.000000,-0.115653,1547562353490906,1547562353241664
1547562353859799,1547562353611457,1.013261,-0.154948,-0.000000,0.000000,-0.000000,-0.118061,1547562353739620,1547562353490906
1547562354107896,1547562353859799,0.979215,-0.154852,-0.000000,-0.000000,-0.000000,-0.123220,1547562353987721,1547562353739620
1547562354355752,1547562354107896,1.007979,-0.174610,-0.000000,-0.000000,-0.000000,-0.127410,1547562354235685,1547562353987721
1547562354603535,1547562354355752,0.969721,-0.169665,-0.000000,-0.000000,-0.000000,-0.129881,1547562354483619,1547562354235685
1547562354852122,1547562354603535,0.945605,-0.166979,-0.000000,0.000000,0.000000,-0.130745,1547562354731269,1547562354483619
1547562355103110,1547562354852122,0.969511,-0.169668,-0.000000,0.000000,-0.000000,-0.128516,1547562354980784,1547562354731269
1547562355354866,1547562355103110,1.030649,-0.165953,-0.000000,0.000000,0.000000,-0.123376,1547562355233309,1547562354980784
1547562355606233,1547562355354866,1.050927,-0.170526,-0.000000,0.000000,0.000000,-0.126097,1547562355484249,1547562355233309
1547562355857932,1547562355606233,1.089836,-0.190409,-0.000000,0.000000,-0.000000,-0.128141,1547562355736169,1547562355484249
1547562356109265,1547562355857932,1.119861,-0.191029,-0.000000,0.000000,0.000000,-0.132352,1547562355987468,1547562355736169
1547562356361025,1547562356109265,1.170315,-0.191579,-0.000000,0.000000,0.000000,-0.134794,1547562356238891,1547562355987468
1547562356613136,1547562356361025,1.229456,-0.201052,-0.000000,0.000000,-0.000000,-0.126786,1547562356491148,1547562356238891
1547562356864549,1547562356613136,1.260974,-0.159747,-0.000000,-0.000000,-0.000000,-0.105924,1547562356743079,1547562356491148
1547562357115937,1547562356864549,1.334057,-0.135938,-0.000000,-0.000000,-0.000000,-0.087272,1547562356993907,1547562356743079
1547562357368007,1547562357115937,1.411353,-0.110552,-0.000000,0.000000,-0.000000,-0.065165,1547562357245859,1547562356993907
1547562357621120,1547562357368007,1.513148,-0.077047,-0.000000,-0.000000,0.000000,-0.043873,1547562357498347,1547562357245859
1547562357874082,1547562357621120,1.531439,-0.066726,-0.000000,0.000000,-0.000000,-0.042943,1547562357751718,1547562357498347
1547562358125822,1547562357874082,1.498514,-0.067527,-0.000000,0.000000,-0.000000,-0.038833,1547562358004193,1547562357751718
1547562358375353,1547562358125822,1.694564,-0.049457,-0.000000,-0.000000,-0.000000,-0.020066,1547562358255167,1547562358004193
1547562358623145,1547562358375353,1.752612,-0.023327,-0.000000,-0.000000,0.000000,-0.011295,1547562358503128,1547562358255167
1547562358871022,1547562358623145,1.784367,-0.014017,-0.000000,-0.000000,-0.000000,-0.001473,1547562358751039,1547562358503128
1547562359117985,1547562358871022,1.828242,-0.012279,-0.000000,-0.000000,0.000000,-0.001285,1547562358998597,1547562358751039
1547562359364372,1547562359117985,1.963429,-0.013550,-0.000000,-0.000000,-0.000000,-0.000411,1547562359244881,1547562358998597
1547562359611427,1547562359364372,2.024370,-0.013768,-0.000000,-0.000000,0.000000,-0.000317,1547562359491536,1547562359244881
1547562359860417,1547562359611427,2.075251,-0.011708,-0.000000,-0.000000,0.000000,-0.002171,1547562359739089,1547562359491536
1547562360110673,1547562359860417,2.104713,-0.020938,-0.000000,-0.000000,0.000000,-0.002241,1547562359989334,1547562359739089
1547562360361350,1547562360110673,2.080912,-0.016465,-0.000000,-0.000000,-0.000000,-0.001943,1547562360239780,1547562359989334
1547562360612470,1547562360361350,2.116110,-0.014622,-0.000000,-0.000000,0.000000,-0.002021,1547562360490669,1547562360239780
1547562360863734,1547562360612470,2.049149,-0.016139,-0.000000,-0.000000,-0.000000,-0.002359,1547562360742200,1547562360490669
1547562361115981,1547562360863734,2.084879,-0.021342,0.000000,-0.000000,0.000000,-0.002344,1547562360993486,1547562360742200
1547562361369161,1547562361115981,2.019791,-0.019610,-0.000000,0.000000,-0.000000,-0.000942,1547562361246584,1547562360993486
1547562361621575,1547562361369161,1.911482,-0.012186,-0.000000,0.000000,0.000000,-0.001334,1547562361499786,1547562361246584
1547562361872392,1547562361621575,1.989585,-0.012386,-0.000000,-0.000000,-0.000000,-0.000836,1547562361751315,1547562361499786
1547562362122258,1547562361872392,2.001375,-0.011294,-0.000000,0.000000,-0.000000,-0.002255,1547562362001293,1547562361751315
1547562362372120,1547562362122258,1.974513,-0.015816,-0.000000,0.000000,-0.000000,-0.002210,1547562362251078,1547562362001293
1547562362622046,1547562362372120,1.948567,-0.011609,-0.000000,0.000000,-0.000000,-0.001302,1547562362500959,1547562362251078
1547562362871823,1547562362622046,1.918312,-0.009758,-0.000000,0.000000,-0.000000,-0.000949,1547562362750939,1547562362500959
1547562363121627,1547562362871823,1.811583,-0.014181,-0.000000,-0.000000,-0.000000,0.000005,1547562363000511,1547562362750939
1547562363372108,1547562363121627,1.830628,-0.005093,-0.000000,0.000000,-0.000000,0.000148,1547562363250694,1547562363000511
1547562363622960,1547562363372108,1.762972,-0.009553,-0.000000,-0.000000,-0.000000,-0.000268,1547562363501361,1547562363250694
1547562363874451,1547562363622960,1.746032,-0.007606,-0.000000,-0.000000,0.000000,0.001351,1547562363752481,1547562363501361
1547562364125691,1547562363874451,1.724951,-0.002169,-0.000000,0.000000,0.000000,-0.000428,1547562364004334,1547562363752481
1547562364376288,1547562364125691,1.643501,-0.010618,-0.000000,-0.000000,0.000000,-0.000265,1547562364255070,1547562364004334
1547562364626813,1547562364376288,1.646813,-0.004285,-0.000000,-0.000000,-0.000000,-0.002075,1547562364505510,1547562364255070
1547562364877305,1547562364626813,1.517136,0.001496,-0.000000,-0.000000,0.000000,0.000338,1547562364756141,1547562364505510
1547562365127277,1547562364877305,1.526889,-0.001399,-0.000000,0.000000,0.000000,-0.000181,1547562365006317,1547562364756141
1547562365377037,1547562365127277,1.523793,-0.009651,-0.000000,-0.000000,-0.000000,0.001628,1547562365256201,1547562365006317
1547562365626516,1547562365377037,1.448280,-0.005139,-0.000000,-0.000000,-0.000000,0.000881,1547562365505636,1547562365256201
1547562365875946,1547562365626516,1.426762,-0.001243,-0.000000,0.000000,0.000000,0.000970,1547562365755104,1547562365505636
1547562366124844,1547562365875946,1.374848,-0.000547,0.000000,0.000000,0.000000,0.000269,1547562366004546,1547562365755104
1547562366373440,1547562366124844,1.338976,-0.001709,-0.000000,-0.000000,0.000000,0.000271,1547562366252900,1547562366004546
1547562366622071,1547562366373440,1.319881,-0.005287,-0.000000,-0.000000,0.000000,-0.001327,1547562366501735,1547562366252900
1547562366870608,1547562366622071,1.315093,-0.005448,-0.000000,-0.000000,-0.000000,-0.001060,1547562366750313,1547562366501735
1547562367119014,1547562366870608,1.275402,-0.004512,-0.000000,-0.000000,-0.000000,-0.000157,1547562366998658,1547562366750313
1547562367368415,1547562367119014,1.246584,-0.004307,-0.000000,0.000000,-0.000000,-0.001769,1547562367247231,1547562366998658
1547562367618910,1547562367368415,1.239186,-0.003408,-0.000000,-0.000000,0.000000,-0.002679,1547562367497505,1547562367247231
1547562367869004,1547562367618910,1.246679,-0.007920,-0.000000,-0.000000,-0.000000,-0.002174,1547562367748031,1547562367497505
1547562368119233,1547562367869004,1.228173,-0.003936,-0.000000,0.000000,-0.000000,-0.002866,1547562367997876,1547562367748031
1547562368369204,1547562368119233,1.213956,-0.005606,-0.000000,0.000000,0.000000,-0.000842,1547562368248279,1547562367997876
1547562368618836,1547562368369204,1.200436,-0.002845,-0.000000,-0.000000,-0.000000,-0.001660,1547562368497947,1547562368248279
1547562368868693,1547562368618836,1.187776,-0.003239,-0.000000,0.000000,-0.000000,-0.002122,1547562368747572,1547562368497947
1547562369118288,1547562368868693,1.193086,-0.002515,-0.000000,0.000000,-0.000000,-0.001011,1547562368997585,1547562368747572
1547562369367770,1547562369118288,1.217735,-0.006489,-0.000000,0.000000,-0.000000,-0.001936,1547562369246921,1547562368997585
1547562369618074,1547562369367770,1.228759,-0.004858,-0.000000,-0.000000,0.000000,-0.002310,1547562369496593,1547562369246921
1547562369869717,1547562369618074,1.267361,-0.005978,-0.000000,-0.000000,-0.000000,-0.000780,1547562369747693,1547562369496593
1547562370121283,1547562369869717,1.269975,-0.006209,-0.000000,0.000000,0.000000,-0.001146,1547562369999740,1547562369747693
1547562370372397,1547562370121283,1.237798,-0.005777,-0.000000,0.000000,-0.000000,-0.001486,1547562370250778,1547562369999740
1547562370623056,1547562370372397,1.249897,-0.012521,-0.000000,-0.000000,-0.000000,-0.001810,1547562370501881,1547562370250778
1547562370873521,1547562370623056,1.306384,0.001476,-0.000000,0.000000,0.000000,-0.001185,1547562370752146,1547562370501881
1547562371123836,1547562370873521,1.289014,-0.000637,-0.000000,-0.000000,0.000000,0.000082,1547562371002622,1547562370752146
1547562371374133,1547562371123836,1.290455,-0.001916,-0.000000,-0.000000,-0.000000,-0.000203,1547562371253092,1547562371002622
1547562371623862,1547562371374133,1.308399,-0.004207,0.000000,0.000000,-0.000000,-0.000318,1547562371502980,1547562371253092
1547562371873138,1547562371623862,1.334388,-0.001809,-0.000000,0.000000,0.000000,-0.000820,1547562371752350,1547562371502980
1547562372122228,1547562371873138,1.298044,-0.009046,-0.000000,-0.000000,-0.000000,-0.001443,1547562372001675,1547562371752350
1547562372371318,1547562372122228,1.349058,-0.010281,-0.000000,0.000000,0.000000,-0.002593,1547562372250538,1547562372001675
1547562372620215,1547562372371318,1.351718,-0.010288,-0.000000,0.000000,0.000000,-0.002667,1547562372499881,1547562372250538
1547562372868333,1547562372620215,1.354609,-0.013203,-0.000000,0.000000,-0.000000,-0.002654,1547562372748244,1547562372499881
1547562373116737,1547562372868333,1.457174,-0.015708,-0.000000,0.000000,-0.000000,-0.003790,1547562372996074,1547562372748244
1547562373366495,1547562373116737,1.441140,-0.019005,-0.000000,0.000000,0.000000,-0.005083,1547562373245056,1547562372996074
1547562373616555,1547562373366495,1.484547,-0.011487,-0.000000,-0.000000,-0.000000,-0.006938,1547562373495763,1547562373245056
1547562373865931,1547562373616555,1.524999,-0.007807,-0.000000,0.000000,-0.000000,-0.006579,1547562373745126,1547562373495763
1547562374115590,1547562373865931,1.527923,-0.015883,-0.000000,-0.000000,0.000000,-0.006312,1547562373994533,1547562373745126
1547562374364835,1547562374115590,1.473046,-0.021816,-0.000000,0.000000,-0.000000,-0.006499,1547562374244320,1547562373994533
1547562374613954,1547562374364835,1.488553,-0.021511,-0.000000,-0.000000,-0.000000,-0.005936,1547562374493357,1547562374244320
1547562374863470,1547562374613954,1.526222,-0.015808,-0.000000,0.000000,-0.000000,-0.006481,1547562374742257,1547562374493357
1547562375113107,1547562374863470,1.563964,-0.013999,-0.000000,-0.000000,-0.000000,-0.005878,1547562374992292,1547562374742257
1547562375362723,1547562375113107,1.598247,-0.009403,-0.000000,0.000000,0.000000,-0.001951,1547562375241482,1547562374992292
1547562375613560,1547562375362723,1.699022,-0.012605,-0.000000,0.000000,0.000000,-0.002007,1547562375491807,1547562375241482
1547562375865340,1547562375613560,1.755806,-0.009447,-0.000000,-0.000000,-0.000000,-0.002886,1547562375743424,1547562375491807
1547562376116593,1547562375865340,1.747816,-0.014058,-0.000000,0.000000,-0.000000,-0.003189,1547562375995108,1547562375743424
1547562376367338,1547562376116593,1.744909,-0.012281,-0.000000,0.000000,-0.000000,-0.002822,1547562376246017,1547562375995108
1547562376617651,1547562376367338,1.749499,-0.013572,-0.000000,-0.000000,-0.000000,-0.003898,1547562376496457,1547562376246017
1547562376867806,1547562376617651,1.823040,-0.000759,-0.000000,-0.000000,0.000000,-0.001402,1547562376746642,1547562376496457
1547562377117778,1547562376867806,1.856130,-0.002692,-0.000000,0.000000,0.000000,-0.004560,1547562376996928,1547562376746642
1547562377367603,1547562377117778,1.863164,-0.006027,-0.000000,-0.000000,-0.000000,-0.005188,1547562377246536,1547562376996928
1547562377617049,1547562377367603,1.958567,-0.018002,-0.000000,0.000000,-0.000000,-0.006591,1547562377496338,1547562377246536
1547562377866794,1547562377617049,2.047502,-0.031713,-0.000000,0.000000,0.000000,-0.004816,1547562377745470,1547562377496338
1547562378114890,1547562377866794,1.888017,-0.030790,-0.000000,-0.000000,0.000000,-0.003973,1547562377994148,1547562377745470
1547562378363861,1547562378114890,2.096207,-0.013458,-0.000000,-0.000000,-0.000000,-0.005601,1547562378243316,1547562377994148
1547562378612471,1547562378363861,2.079764,-0.012476,-0.000000,-0.000000,-0.000000,-0.003418,1547562378492086,1547562378243316
1547562378861485,1547562378612471,2.040178,-0.012204,-0.000000,0.000000,0.000000,-0.001292,1547562378740680,1547562378492086
1547562379110265,1547562378861485,2.016516,-0.005839,-0.000000,-0.000000,-0.000000,-0.001413,1547562378989309,1547562378740680
1547562379360325,1547562379110265,2.012610,-0.005368,-0.000000,0.000000,-0.000000,-0.000158,1547562379238991,1547562378989309
1547562379610334,1547562379360325,2.077268,0.000970,-0.000000,-0.000000,0.000000,0.001703,1547562379489539,1547562379238991
1547562379859819,1547562379610334,2.000539,0.001896,-0.000000,-0.000000,0.000000,0.001511,1547562379738860,1547562379489539
1547562380109857,1547562379859819,2.036409,-0.004750,-0.000000,-0.000000,-0.000000,0.002686,1547562379988708,1547562379738860
1547562380359511,1547562380109857,2.120004,-0.002858,-0.000000,0.000000,-0.000000,0.004110,1547562380238800,1547562379988708
1547562380608965,1547562380359511,1.997321,0.006645,-0.000000,0.000000,-0.000000,0.004846,1547562380487906,1547562380238800
1547562380858726,1547562380608965,2.003700,-0.001712,0.000000,-0.000000,-0.000000,0.006019,1547562380737927,1547562380487906
1547562381107828,1547562380858726,2.042868,0.004939,-0.000000,0.000000,-0.000000,0.006403,1547562380987102,1547562380737927
1547562381357709,1547562381107828,2.075376,0.005929,-0.000000,0.000000,-0.000000,0.004612,1547562381236272,1547562380987102
1547562381609190,1547562381357709,2.124347,0.002916,-0.000000,-0.000000,-0.000000,0.004988,1547562381487096,1547562381236272
1547562381860852,1547562381609190,2.187531,0.009518,-0.000000,-0.000000,0.000000,0.006547,1547562381739222,1547562381487096
1547562382111963,1547562381860852,2.218333,-0.000806,-0.000000,0.000000,-0.000000,0.004202,1547562381990395,1547562381739222
1547562382362815,1547562382111963,2.220907,-0.003440,-0.000000,0.000000,0.000000,0.002613,1547562382241472,1547562381990395
1547562382613358,1547562382362815,2.186779,-0.007549,-0.000000,-0.000000,-0.000000,0.001846,1547562382492048,1547562382241472
1547562382863649,1547562382613358,2.129789,0.000515,-0.000000,0.000000,-0.000000,0.004285,1547562382742454,1547562382492048
1547562383113263,1547562382863649,2.141114,0.005335,-0.000000,-0.000000,-0.000000,0.003993,1547562382992619,1547562382742454
1547562383362377,1547562383113263,2.151930,0.005292,-0.000000,-0.000000,0.000000,0.007233,1547562383241741,1547562382992619
1547562383611600,1547562383362377,2.139609,0.008238,-0.000000,0.000000,-0.000000,0.004739,1547562383490737,1547562383241741
1547562383860740,1547562383611600,2.174125,0.006735,-0.000000,0.000000,-0.000000,0.003822,1547562383740308,1547562383490737
1547562384109790,1547562383860740,2.210395,-0.003851,-0.000000,-0.000000,0.000000,0.001748,1547562383989041,1547562383740308
1547562384358126,1547562384109790,2.156864,-0.004199,-0.000000,-0.000000,0.000000,0.002035,1547562384237829,1547562383989041
1547562384606251,1547562384358126,2.178857,-0.003200,-0.000000,-0.000000,0.000000,0.003423,1547562384486223,1547562384237829
1547562384854880,1547562384606251,2.175217,0.002695,-0.000000,0.000000,0.000000,0.003479,1547562384734148,1547562384486223
1547562385104991,1547562384854880,2.221320,0.001212,-0.000000,-0.000000,0.000000,0.001939,1547562384983573,1547562384734148
1547562385355196,1547562385104991,2.239422,-0.004881,-0.000000,0.000000,-0.000000,0.000363,1547562385234297,1547562384983573
1547562385604812,1547562385355196,2.154751,-0.007769,-0.000000,0.000000,0.000000,-0.000628,1547562385483963,1547562385234297
1547562385854602,1547562385604812,2.388951,-0.002643,-0.000000,-0.000000,0.000000,0.002623,1547562385733619,1547562385483963
1547562386104596,1547562385854602,2.322728,-0.005499,-0.000000,-0.000000,-0.000000,0.000510,1547562385983377,1547562385733619
1547562386355680,1547562386104596,2.299633,-0.016036,-0.000000,-0.000000,-0.000000,0.002018,1547562386233639,1547562385983377
1547562386607852,1547562386355680,2.300639,-0.010584,-0.000000,0.000000,0.000000,-0.000504,1547562386485636,1547562386233639
1547562386859348,1547562386607852,2.291226,-0.009763,-0.000000,-0.000000,0.000000,-0.000880,1547562386737854,1547562386485636
1547562387110120,1547562386859348,2.241341,-0.009562,-0.000000,0.000000,-0.000000,-0.001271,1547562386988681,1547562386737854
1547562387360198,1547562387110120,2.265572,-0.008347,-0.000000,0.000000,-0.000000,-0.001795,1547562387239239,1547562386988681
1547562387609962,1547562387360198,2.291478,-0.006852,-0.000000,-0.000000,0.000000,-0.000751,1547562387488910,1547562387239239
1547562387859744,1547562387609962,2.285449,-0.002170,-0.000000,-0.000000,0.000000,0.002476,1547562387738837,1547562387488910
1547562388109539,1547562387859744,2.300898,-0.000324,-0.000000,0.000000,-0.000000,0.001624,1547562387988530,1547562387738837
1547562388359273,1547562388109539,2.290865,-0.006394,-0.000000,-0.000000,-0.000000,0.001111,1547562388238472,1547562387988530
1547562388608691,1547562388359273,2.262640,-0.006615,-0.000000,0.000000,-0.000000,0.000255,1547562388487832,1547562388238472
1547562388858296,1547562388608691,2.323750,-0.010104,-0.000000,0.000000,0.000000,0.000621,1547562388737536,1547562388487832
1547562389107237,1547562388858296,2.371456,-0.003398,-0.000000,-0.000000,-0.000000,-0.000364,1547562388986952,1547562388737536
1547562389355747,1547562389107237,2.157986,-0.008876,-0.000000,0.000000,-0.000000,0.000481,1547562389235215,1547562388986952
1547562389604557,1547562389355747,2.344732,-0.009034,-0.000000,-0.000000,-0.000000,0.000575,1547562389484142,1547562389235215
1547562389853121,1547562389604557,2.321556,-0.011607,-0.000000,0.000000,-0.000000,0.000068,1547562389732557,1547562389484142
1547562390103105,1547562389853121,2.326254,-0.010312,-0.000000,0.000000,0.000000,0.000783,1547562389981448,1547562389732557
1547562390353185,1547562390103105,2.325982,-0.008091,-0.000000,0.000000,0.000000,0.000346,1547562390232732,1547562389981448
1547562390602459,1547562390353185,2.346243,-0.006468,-0.000000,-0.000000,0.000000,0.000076,1547562390481600,1547562390232732
1547562390852430,1547562390602459,2.231607,-0.013049,-0.000000,-0.000000,0.000000,0.000675,1547562390731234,1547562390481600
1547562391102266,1547562390852430,2.277827,-0.011441,-0.000000,0.000000,-0.000000,0.000714,1547562390981365,1547562390731234
1547562391351775,1547562391102266,2.316370,-0.009100,-0.000000,-0.000000,0.000000,0.000798,1547562391230956,1547562390981365
1547562391601403,1547562391351775,2.385001,-0.009295,-0.000000,-0.000000,-0.000000,0.001182,1547562391480488,1547562391230956
1547562391851180,1547562391601403,2.250366,-0.011190,-0.000000,-0.000000,0.000000,0.000789,1547562391730221,1547562391480488
1547562392101382,1547562391851180,2.272701,-0.007007,-0.000000,0.000000,0.000000,0.000485,1547562391980011,1547562391730221
1547562392352821,1547562392101382,2.310806,-0.005519,-0.000000,0.000000,-0.000000,-0.000155,1547562392230633,1547562391980011
1547562392604420,1547562392352821,2.316968,-0.004896,-0.000000,-0.000000,-0.000000,-0.000357,1547562392482850,1547562392230633
1547562392855519,1547562392604420,2.255184,-0.012820,-0.000000,0.000000,-0.000000,-0.000156,1547562392733894,1547562392482850
1547562393106515,1547562392855519,2.248736,-0.013937,-0.000000,-0.000000,0.000000,0.000558,1547562392985004,1547562392733894
1547562393356787,1547562393106515,2.243361,-0.008073,-0.000000,-0.000000,0.000000,0.000040,1547562393235897,1547562392985004
1547562393606797,1547562393356787,2.232255,-0.008424,-0.000000,0.000000,-0.000000,0.000234,1547562393485519,1547562393235897
1547562393856645,1547562393606797,2.164106,-0.014053,-0.000000,0.000000,-0.000000,0.000003,1547562393735732,1547562393485519
1547562394106023,1547562393856645,2.130004,-0.008852,-0.000000,0.000000,-0.000000,-0.000493,1547562393985406,1547562393735732
1547562394355014,1547562394106023,2.259582,-0.013543,-0.000000,-0.000000,-0.000000,-0.001824,1547562394234234,1547562393985406
1547562394604276,1547562394355014,2.298912,-0.021579,-0.000000,0.000000,-0.000000,-0.000493,1547562394483508,1547562394234234
1547562394853347,1547562394604276,2.103609,-0.020946,-0.000000,0.000000,-0.000000,-0.001076,1547562394732690,1547562394483508
1547562395102565,1547562394853347,2.011508,-0.018936,-0.000000,-0.000000,0.000000,-0.001063,1547562394981913,1547562394732690
1547562395351222,1547562395102565,2.047560,-0.017033,-0.000000,-0.000000,0.000000,-0.000976,1547562395230929,1547562394981913
1547562395599537,1547562395351222,2.094717,-0.018083,-0.000000,0.000000,-0.000000,-0.001305,1547562395479505,1547562395230929
1547562395847650,1547562395599537,2.070236,-0.017453,-0.000000,-0.000000,-0.000000,-0.000783,1547562395727313,1547562395479505
1547562396097070,1547562395847650,2.197474,-0.007543,-0.000000,0.000000,-0.000000,-0.000817,1547562395975877,1547562395727313
1547562396347343,1547562396097070,2.194443,-0.008254,-0.000000,0.000000,-0.000000,-0.000586,1547562396226321,1547562395975877
1547562396596898,1547562396347343,2.039578,-0.008829,-0.000000,0.000000,0.000000,-0.001482,1547562396476097,1547562396226321
1547562396846206,1547562396596898,2.022064,-0.015549,-0.000000,0.000000,-0.000000,0.002743,1547562396725445,1547562396476097
1547562397095827,1547562396846206,2.021039,-0.010357,-0.000000,-0.000000,-0.000000,0.005422,1547562396975021,1547562396725445
1547562397345574,1547562397095827,2.012559,-0.002303,-0.000000,-0.000000,-0.000000,0.005313,1547562397224551,1547562396975021
1547562397595386,1547562397345574,1.997826,0.001317,-0.000000,-0.000000,-0.000000,0.004434,1547562397474458,1547562397224551
1547562397845193,1547562397595386,1.990199,0.003648,-0.000000,0.000000,0.000000,0.003868,1547562397724308,1547562397474458
1547562398095314,1547562397845193,1.976417,0.002971,-0.000000,-0.000000,0.000000,0.002916,1547562397973932,1547562397724308
1547562398346586,1547562398095314,1.975435,-0.003621,-0.000000,-0.000000,-0.000000,0.002989,1547562398224662,1547562397973932
1547562398598133,1547562398346586,1.946105,-0.008145,-0.000000,0.000000,-0.000000,-0.001863,1547562398476542,1547562398224662
1547562398849099,1547562398598133,1.933538,-0.009357,-0.000000,0.000000,-0.000000,-0.001988,1547562398727633,1547562398476542
1547562399099452,1547562398849099,1.924240,-0.012648,-0.000000,-0.000000,-0.000000,-0.004664,1547562398978110,1547562398727633
1547562399349981,1547562399099452,1.916936,-0.019863,-0.000000,-0.000000,-0.000000,-0.006923,1547562399228581,1547562398978110
1547562399600711,1547562399349981,1.872976,-0.020252,-0.000000,-0.000000,-0.000000,-0.007726,1547562399479224,1547562399228581
1547562399850702,1547562399600711,1.844270,-0.023610,-0.000000,0.000000,-0.000000,-0.009575,1547562399729892,1547562399479224
1547562400100259,1547562399850702,1.828116,-0.017796,-0.000000,0.000000,0.000000,-0.006533,1547562399979294,1547562399729892
1547562400349530,1547562400100259,1.806614,-0.008724,-0.000000,0.000000,0.000000,-0.003631,1547562400228928,1547562399979294
1547562400598051,1547562400349530,1.736777,-0.008330,-0.000000,-0.000000,-0.000000,-0.000988,1547562400477800,1547562400228928
1547562400846276,1547562400598051,1.718554,-0.003706,-0.000000,0.000000,0.000000,0.000907,1547562400726177,1547562400477800
1547562401094943,1547562400846276,1.718874,-0.007592,-0.000000,-0.000000,-0.000000,-0.000878,1547562400974382,1547562400726177
1547562401343722,1547562401094943,1.707812,-0.010893,-0.000000,-0.000000,0.000000,-0.000280,1547562401223440,1547562400974382
1547562401592453,1547562401343722,1.685711,-0.010312,-0.000000,-0.000000,-0.000000,0.002275,1547562401471800,1547562401223440
1547562401842722,1547562401592453,1.763704,-0.005766,-0.000000,0.000000,0.000000,0.003429,1547562401721094,1547562401471800
1547562402093005,1547562401842722,1.834412,-0.004190,-0.000000,-0.000000,-0.000000,0.001973,1547562401972221,1547562401721094
1547562402342559,1547562402093005,1.903769,-0.008172,0.000000,0.000000,-0.000000,0.000309,1547562402221742,1547562401972221
1547562402592089,1547562402342559,1.918479,-0.009085,0.000000,-0.000000,-0.000000,-0.001498,1547562402471079,1547562402221742
1547562402841702,1547562402592089,1.930623,-0.010071,-0.000000,0.000000,0.000000,-0.001887,1547562402720814,1547562402471079
1547562403091693,1547562402841702,1.998591,-0.017204,-0.000000,-0.000000,0.000000,-0.000141,1547562402970460,1547562402720814
1547562403341400,1547562403091693,1.957848,-0.014190,-0.000000,0.000000,0.000000,-0.002825,1547562403220662,1547562402970460
1547562403590864,1547562403341400,1.919446,-0.011215,-0.000000,-0.000000,-0.000000,-0.002059,1547562403470111,1547562403220662
1547562403840756,1547562403590864,1.902967,-0.010687,0.000000,-0.000000,-0.000000,0.000217,1547562403719431,1547562403470111
